City_ID,City,Lat,Lng,Max Temp,Humidity,Cloudiness,Wind Speed,Country,Date
0,lerwick,60.1545,-1.1494,15.0,95,100,5.34,GB,1688772554
1,inarajan village,13.2736,144.7484,29.54,79,92,7.03,GU,1688772554
2,kingston,17.997,-76.7936,31.53,66,20,8.75,JM,1688772555
3,hawaiian paradise park,19.5933,-154.9731,25.73,83,75,1.54,US,1688772555
4,udachny,66.4167,112.4,13.76,66,55,9.53,RU,1688772555
5,iqaluit,63.7506,-68.5145,12.85,58,75,1.03,CA,1688772555
6,al bawiti,28.3492,28.8659,26.95,46,4,3.72,EG,1688772556
7,alofi,-19.0595,-169.9187,26.94,65,66,4.63,NU,1688772556
8,port mathurin,-19.6833,63.4167,23.5,71,21,10.21,MU,1688772556
9,utrik,11.2278,169.8474,28.35,82,100,8.33,MH,1688772557
10,port-aux-francais,-49.35,70.2167,2.78,74,87,17.76,TF,1688772558
11,eastham,41.8301,-69.9739,24.22,75,100,2.06,US,1688772558
12,adamstown,-25.066,-130.1015,21.7,68,18,6.57,PN,1688772559
13,hepo,23.4308,115.8299,26.89,91,25,1.08,CN,1688772559
14,grytviken,-54.2811,-36.5092,-8.21,83,19,5.48,GS,1688772559
15,opuwo,-18.0607,13.84,16.07,30,0,2.61,NA,1688772560
16,labytnangi,66.6572,66.4183,13.95,86,100,2.5,RU,1688772560
17,kargil,34.5667,76.1,9.05,73,83,1.99,IN,1688772560
18,richards bay,-28.783,32.0377,20.19,37,18,4.78,ZA,1688772348
19,blackmans bay,-43.0167,147.3167,11.5,71,100,4.48,AU,1688772561
20,priozersk,61.0393,30.1291,13.86,88,5,3.08,RU,1688772561
21,waitangi,-43.9535,-176.5597,8.23,92,79,0.89,NZ,1688772562
22,ushuaia,-54.8,-68.3,1.81,69,40,11.83,AR,1688772562
23,acarau,-2.8856,-40.12,25.77,83,1,5.93,BR,1688772562
24,fale old settlement,-9.3852,-171.2468,28.52,74,19,9.28,TK,1688772563
25,isafjordur,66.0755,-23.124,8.85,77,4,2.74,IS,1688772563
26,tralee,52.2704,-9.7026,17.02,87,100,9.36,IE,1688772563
27,tazovsky,67.4667,78.7,10.37,96,100,7.3,RU,1688772564
28,georgetown,5.4112,100.3354,26.97,80,20,3.6,MY,1688772306
29,barah,13.7,30.3667,29.07,56,60,7.41,SD,1688772564
30,aykhal,66.0,111.5,12.56,73,78,9.68,RU,1688772327
31,cabo san lucas,22.8909,-109.9124,36.45,40,0,6.69,MX,1688772565
32,talnakh,69.4865,88.3972,17.34,75,100,4.43,RU,1688772565
33,yaren,-0.5472,166.916,28.69,81,97,6.82,NR,1688772565
34,tipitapa,12.1973,-86.0971,32.01,58,40,4.12,NI,1688772565
35,howard springs,-12.497,131.047,24.95,53,51,4.52,AU,1688772566
36,el bauga,18.262,33.9081,35.45,17,77,4.09,SD,1688772566
37,vorgashor,67.5833,63.95,10.75,95,96,2.97,RU,1688772566
38,gamba,-2.65,10.0,21.3,91,100,2.12,GA,1688772566
39,newman,37.3138,-121.0208,33.19,15,0,4.2,US,1688772567
40,edinburgh of the seven seas,-37.0676,-12.3116,14.06,80,92,8.76,SH,1688772567
41,justo daract,-33.8594,-65.1828,9.31,61,49,7.25,AR,1688772567
42,sonoita,31.85,-112.8333,37.34,16,0,8.65,MX,1688772568
43,hithadhoo,-0.6,73.0833,27.54,72,58,1.98,MV,1688772568
44,bilibino,68.0546,166.4372,17.0,36,46,3.92,RU,1688772568
45,haiku-pauwela,20.9219,-156.3051,28.01,68,40,8.23,US,1688772568
46,quellon,-43.1167,-73.6167,3.14,100,75,0.51,CL,1688772569
47,mekhe,15.1097,-16.6218,28.49,69,93,4.15,SN,1688772569
48,nar'yan-mar,67.6713,53.087,7.63,87,100,4.28,RU,1688772569
49,taksimo,56.3444,114.8794,21.02,61,92,1.17,RU,1688772569
50,bhandara,21.1667,79.65,25.32,90,100,4.62,IN,1688772570
51,whitehorse,60.7161,-135.0538,33.9,19,20,6.71,CA,1688772570
52,vadso,70.0744,29.7487,7.09,87,100,0.51,NO,1688772570
53,puerto natales,-51.7236,-72.4875,-1.26,91,9,1.47,CL,1688772570
54,puerto armuelles,8.2833,-82.8667,29.49,62,100,1.79,PA,1688772455
55,guntur,16.3,80.45,27.75,70,99,4.21,IN,1688772571
56,ribeira grande,38.5167,-28.7,19.78,66,46,4.5,PT,1688772571
57,keflavik,64.0049,-22.5624,13.95,71,0,5.14,IS,1688772571
58,olonkinbyen,70.9221,-8.7187,6.9,91,100,3.13,SJ,1688772572
59,walvis bay,-22.9575,14.5053,13.38,100,0,2.06,NA,1688772572
60,luderitz,-26.6481,15.1594,14.78,86,44,4.3,NA,1688772573
61,suntar,62.1444,117.6319,16.51,65,17,4.75,RU,1688772574
62,coquimbo,-29.9533,-71.3436,11.85,87,0,1.03,CL,1688772574
63,ingeniero guillermo n. juarez,-23.9,-61.85,26.1,54,92,4.11,AR,1688772574
64,uturoa,-16.7333,-151.4333,26.87,78,3,8.89,PF,1688772574
65,rio verde de mato grosso,-18.9181,-54.8442,24.25,38,56,1.97,BR,1688772575
66,hadibu,12.65,54.0333,24.7,82,71,9.74,YE,1688772575
67,bredasdorp,-34.5322,20.0403,12.11,57,3,10.39,ZA,1688772575
68,puri,19.8,85.85,26.29,79,99,3.48,IN,1688772545
69,port lincoln,-34.7333,135.8667,13.08,66,64,9.85,AU,1688772576
70,ta`u,-14.2336,-169.5144,27.46,75,49,7.27,AS,1688772576
71,nova sintra,14.8667,-24.7167,21.98,86,21,3.06,CV,1688772576
72,slave lake,55.2834,-114.769,23.99,33,0,3.6,CA,1688772576
73,port blair,11.6667,92.75,27.02,94,100,2.06,IN,1688772347
74,biloela,-24.4167,150.5,14.42,43,1,3.59,AU,1688772577
75,arteche,12.2645,125.4048,27.51,83,81,2.03,PH,1688772577
76,ilulissat,69.2167,-51.1,8.01,93,75,3.6,GL,1688772577
77,bandarbeyla,9.4942,50.8122,26.42,65,18,13.18,SO,1688772578
78,papatowai,-46.5619,169.4708,7.77,80,77,4.32,NZ,1688772578
79,poso,-1.3959,120.7524,24.84,85,86,5.43,ID,1688772578
80,aasiaat,68.7098,-52.8699,4.65,97,100,7.42,GL,1688772578
81,padang,-0.9492,100.3543,24.03,88,79,1.04,ID,1688772579
82,hammerfest,70.6634,23.6821,9.25,76,54,3.09,NO,1688772579
83,tura,25.5198,90.2201,23.55,97,100,2.22,IN,1688772579
84,kapuskasing,49.4169,-82.4331,23.05,43,75,4.12,CA,1688772579
85,kodiak,57.79,-152.4072,12.73,67,100,6.69,US,1688772580
86,ust-nera,64.5667,143.2,21.76,43,89,3.11,RU,1688772580
87,bethel,41.3712,-73.414,27.53,75,0,2.06,US,1688772580
88,albany,42.6001,-73.9662,24.09,88,98,1.09,US,1688772580
89,dzhangala,49.2167,50.3333,27.67,33,0,5.65,KZ,1688772581
90,margaret river,-33.95,115.0667,14.39,77,41,4.38,AU,1688772581
91,hamilton,39.1834,-84.5333,31.35,45,20,4.63,US,1688772007
92,belyy yar,53.6039,91.3903,19.94,73,20,0.0,RU,1688772582
93,novo aripuana,-5.1206,-60.3797,26.49,66,66,1.16,BR,1688772582
94,dondo,-19.6094,34.7431,16.73,87,0,0.96,MZ,1688772582
95,invercargill,-46.4,168.35,5.43,75,82,1.65,NZ,1688772582
96,anadyr,64.75,177.4833,10.28,81,75,5.0,RU,1688772583
97,san andres,12.5847,-81.7006,29.01,74,20,4.12,CO,1688772583
98,bratsk,56.1325,101.6142,17.27,71,100,1.23,RU,1688772583
99,chonchi,-42.6128,-73.8092,6.56,92,100,1.13,CL,1688772583
100,yellowknife,62.456,-114.3525,25.29,31,75,7.2,CA,1688772584
101,lihue,21.9789,-159.3672,29.77,61,20,7.72,US,1688772584
102,goondiwindi,-28.55,150.3167,10.58,65,0,3.46,AU,1688772584
103,tofol,5.3248,163.0078,30.88,70,75,4.12,FM,1688772584
104,jamestown,42.097,-79.2353,23.34,58,0,3.6,US,1688772585
105,al ghayzah,16.2079,52.176,26.42,85,85,5.11,YE,1688772585
106,tyumentsevo,53.3224,81.498,14.34,94,6,1.76,RU,1688772585
107,susuman,62.7833,148.1667,18.12,60,20,3.5,RU,1688772585
108,san patricio,28.017,-97.5169,30.97,65,30,6.32,US,1688772586
109,bouarfa,32.53,-1.95,33.48,13,91,9.55,MA,1688772586
110,badger,64.8,-147.5333,22.93,65,75,2.06,US,1688772586
111,longyearbyen,78.2186,15.6401,8.91,76,20,7.72,SJ,1688772586
112,urengoy,65.9667,78.3667,15.5,89,100,2.31,RU,1688772587
113,vyyezdnoye,55.3815,43.7864,21.1,81,39,3.12,RU,1688772587
114,puerto carreno,6.189,-67.4859,24.99,100,75,1.03,CO,1688772587
115,yuzhno-kurilsk,44.0306,145.8556,17.23,86,52,0.61,RU,1688772587
116,preobrazheniye,42.9019,133.9064,20.59,78,37,0.79,RU,1688772588
117,labrador city,52.9463,-66.9114,18.95,94,100,3.09,CA,1688772588
118,abadeh,31.1608,52.6506,21.5,28,2,1.51,IR,1688772588
119,tiksi,71.6872,128.8694,2.41,63,79,5.78,RU,1688772588
120,wenceslau braz,-23.8739,-49.8028,14.89,62,27,0.58,BR,1688772589
121,mercedes,-34.6515,-59.4307,11.61,74,89,4.59,AR,1688772589
122,remire-montjoly,4.9167,-52.2667,26.02,89,0,2.06,GF,1688772589
123,karakocan,38.9558,40.0386,21.72,42,4,1.38,TR,1688772589
124,lebu,-37.6167,-73.65,10.06,87,100,10.74,CL,1688772590
125,fairbanks,64.8378,-147.7164,22.98,64,75,2.06,US,1688772590
126,bartica,6.4,-58.6167,28.18,92,50,2.05,GY,1688772590
127,raton,36.9034,-104.4391,26.34,39,40,3.6,US,1688772591
128,shanhecun,44.7,127.2,22.15,80,87,2.41,CN,1688772591
129,raduzhny,62.0961,77.475,16.32,88,100,1.87,RU,1688772591
130,trevelin,-43.0858,-71.4639,-0.29,94,100,0.2,AR,1688772591
131,sitka,57.0531,-135.33,17.94,68,0,7.2,US,1688772592
132,severo-yeniseyskiy,60.3725,93.0408,17.02,68,57,1.52,RU,1688772592
133,camabatela,-8.1881,15.375,15.6,44,1,0.38,AO,1688772592
134,porto novo,6.4965,2.6036,26.9,86,100,4.27,BJ,1688772592
135,nemuro,43.3236,145.575,13.33,96,96,0.98,JP,1688772592
136,cururupu,-1.8283,-44.8683,23.11,96,12,1.09,BR,1688772593
137,port elizabeth,-33.918,25.5701,14.62,90,0,4.63,ZA,1688772312
138,punta arenas,-53.15,-70.9167,-1.94,86,0,2.57,CL,1688772593
139,rada tilly,-45.9333,-67.5333,0.27,74,0,3.6,AR,1688772593
140,sittwe,20.15,92.9,26.32,90,71,4.16,MM,1688772468
141,iskateley,67.6803,53.1512,7.56,87,100,4.33,RU,1688772594
142,kavaratti,10.5669,72.642,28.32,76,100,8.98,IN,1688772594
143,puerto ayora,-0.7393,-90.3518,25.86,88,71,1.79,EC,1688772594
144,mariental,-24.6333,17.9667,13.89,30,0,3.36,NA,1688772595
145,qaqortoq,60.7167,-46.0333,6.42,87,28,1.52,GL,1688772595
146,simojovel de allende,17.2,-92.6333,23.54,96,74,0.52,MX,1688772595
147,mil'kovo,55.6078,37.7956,19.27,96,72,1.71,RU,1688772595
148,vernon,50.2581,-119.2691,32.74,30,100,3.13,CA,1688772567
149,ocean shores,46.9737,-124.1563,19.1,81,100,5.66,US,1688772596
150,chinde,26.8418,88.0763,18.37,91,98,1.24,NP,1688772596
151,buka,40.8108,69.1986,21.2,45,10,1.15,UZ,1688772596
152,wailua homesteads,22.0669,-159.378,29.44,70,20,7.72,US,1688772597
153,kapa'a,22.0752,-159.319,30.18,70,20,7.72,US,1688772597
154,ulanhot,46.0833,122.0833,17.92,98,100,3.53,CN,1688772561
155,kaa-khem,51.6833,94.7333,19.55,59,99,0.73,RU,1688772597
156,west island,-12.1568,96.8225,25.99,73,40,6.69,CC,1688772598
157,nahiyat ash shinafiyah,31.5874,44.6602,36.09,14,0,3.81,IQ,1688772598
158,stanley,54.868,-1.6985,15.29,86,0,1.03,GB,1688772598
159,tchintabaraden,15.8969,5.7985,36.08,21,60,1.82,NE,1688772598
160,mamfe,5.754,9.3123,23.63,97,99,0.25,CM,1688772599
161,namibe,-15.1961,12.1522,19.54,74,4,2.37,AO,1688772599
162,mejit,10.2753,170.8646,28.34,78,93,8.67,MH,1688772599
163,ust'-ilimsk,58.0006,102.6619,19.92,59,100,0.94,RU,1688772599
164,chibougamau,49.9168,-74.3659,21.79,60,20,2.06,CA,1688772600
165,freeport,40.6576,-73.5832,27.88,79,0,4.12,US,1688772600
166,turpan,42.9333,89.1667,32.26,25,61,1.53,CN,1688772600
167,petropavlovsk-kamchatsky,53.0452,158.6483,14.33,100,100,0.0,RU,1688772361
168,st. john's,47.5649,-52.7093,16.75,94,100,1.03,CA,1688772601
169,tateyama,34.9833,139.8667,24.81,92,99,9.7,JP,1688772601
170,mundo novo,-11.8589,-40.4725,20.89,79,93,3.89,BR,1688772601
171,ciudad lazaro cardenas,17.9583,-102.2,29.97,71,23,4.42,MX,1688772602
172,plouguerneau,48.6,-4.5,19.11,94,0,5.14,FR,1688772602
173,novodvinsk,64.4165,40.8122,8.64,93,96,1.94,RU,1688772603
174,zhangjiakou shi xuanhua qu,40.6103,115.0447,24.53,46,47,6.04,CN,1688772604
175,urganch,41.55,60.6333,22.97,46,0,2.06,UZ,1688772604
176,weno,7.4515,151.8468,26.97,89,100,2.06,FM,1688772605
177,kavieng,-2.5744,150.7967,25.52,90,100,4.34,PG,1688772605
178,mabama,-5.1333,32.5333,17.76,51,84,3.57,TZ,1688772605
179,sola,-13.8833,167.55,26.14,78,69,9.16,VU,1688772606
180,eyl,7.9803,49.8164,26.34,63,11,11.67,SO,1688772606
181,zavitinsk,50.1167,129.45,23.79,65,3,1.82,RU,1688772606
182,banamba,13.55,-7.45,31.65,41,59,1.47,ML,1688772607
183,bamboo flat,11.7,92.7167,27.05,94,100,2.06,IN,1688772607
184,carauari,-4.8828,-66.8958,24.72,86,86,1.03,BR,1688772607
185,bengkulu,-3.8004,102.2655,23.78,93,94,1.81,ID,1688772431
186,zakynthos,37.7914,20.8953,23.68,72,0,6.22,GR,1688772608
187,manokwari,-0.8667,134.0833,26.53,81,99,2.09,ID,1688772608
188,bardai,11.65,7.2333,23.67,76,94,3.61,NG,1688772608
189,lata,40.1629,-8.3327,15.34,97,64,1.24,PT,1688772609
190,karratha,-20.7377,116.8463,15.88,35,0,7.71,AU,1688772609
191,pacific grove,36.6177,-121.9166,27.23,79,100,6.17,US,1688772610
192,la passe,45.5549,-0.8967,23.13,92,58,3.59,FR,1688772610
193,tommot,58.9564,126.2925,21.01,71,10,5.22,RU,1688772610
194,vilyuysk,63.7553,121.6247,16.53,73,91,5.85,RU,1688772611
195,lensk,60.7253,114.9278,19.64,51,0,3.56,RU,1688772611
196,dryden,49.7833,-92.7503,19.16,52,75,3.09,CA,1688772611
197,flying fish cove,-10.4217,105.6791,22.82,94,75,5.14,CX,1688772611
198,dudinka,69.4058,86.1778,17.57,72,100,6.52,RU,1688772612
199,mandalgovi,45.7625,106.2708,16.23,72,79,5.06,MN,1688772612
200,nurota,40.5614,65.6886,23.53,32,0,2.43,UZ,1688772612
201,laurel,39.0993,-76.8483,29.78,75,40,1.54,US,1688772613
202,pervari,37.9357,42.5493,22.46,40,0,1.67,TR,1688772613
203,fort bragg,35.139,-79.006,29.85,74,0,1.54,US,1688772613
204,kununurra,-15.7667,128.7333,21.99,60,25,4.12,AU,1688772613
205,kikwit,-5.041,18.8162,22.6,36,32,1.05,CD,1688772614
206,antsiranana,-12.2787,49.2917,22.47,70,54,8.32,MG,1688772614
207,hermanus,-34.4187,19.2345,14.33,71,4,12.13,ZA,1688772614
208,dogonbadan,30.3586,50.7981,29.05,28,0,0.0,IR,1688772615
209,sur,22.5667,59.5289,31.21,56,67,3.42,OM,1688772615
210,cacheu,12.2706,-16.1658,25.05,85,94,1.91,GW,1688772615
211,college,64.8569,-147.8028,22.97,64,75,2.06,US,1688772616
212,shenjiamen,29.9576,122.298,24.71,94,100,4.36,CN,1688772616
213,manistee,44.2445,-86.3242,23.01,61,0,3.09,US,1688772616
214,vratimov,49.77,18.3102,17.11,85,0,1.54,CZ,1688772617
215,guichon,-32.35,-57.2,12.71,89,100,5.43,UY,1688772617
216,vilyuchinsk,52.9306,158.4028,15.15,93,100,1.56,RU,1688772617
217,malango,-2.9627,119.9001,19.37,97,100,0.53,ID,1688772618
218,mabini,15.6,120.9833,28.74,72,19,1.6,PH,1688772618
219,polyarnyy,69.1989,33.4478,6.06,86,48,3.19,RU,1688772618
220,sinjai,-5.1241,120.253,26.29,86,100,3.11,ID,1688772619
221,martapura,-3.4167,114.85,23.63,97,100,1.06,ID,1688772619
222,carutapera,-1.195,-46.02,24.27,91,40,2.64,BR,1688772620
223,elko,41.0002,-115.5012,28.01,28,49,4.47,US,1688772620
224,kupang,-10.1667,123.5833,26.32,78,20,4.12,ID,1688772620
225,dublin,37.7021,-121.9358,25.0,63,0,8.23,US,1688772621
226,avarua,-21.2078,-159.775,25.03,88,100,4.63,CK,1688772621
227,amga,60.8953,131.9608,21.39,59,24,4.75,RU,1688772622
228,alexandroupoli,40.8475,25.8744,21.9,83,20,0.0,GR,1688772622
229,lubuklinggau,-3.3,102.8667,22.62,97,95,0.94,ID,1688772622
230,craig,40.5153,-107.5464,27.97,18,100,3.09,US,1688772623
231,arenapolis,-14.4503,-56.8461,24.57,47,0,2.23,BR,1688772623
232,san-pedro,4.7485,-6.6363,23.47,87,94,2.94,CI,1688772623
233,pipirig,47.25,26.0667,17.05,87,100,3.58,RO,1688772624
234,scarborough,54.2797,-0.4044,17.76,71,0,3.13,GB,1688772624
235,ponta delgada,37.7333,-25.6667,18.4,68,20,2.57,PT,1688772624
236,thompson,55.7435,-97.8558,19.09,39,75,4.12,CA,1688772625
237,cataingan,12.003,123.992,28.14,78,22,4.07,PH,1688772625
238,santa ana,33.7456,-117.8678,33.56,56,0,4.63,US,1688772525
239,boguchany,58.3814,97.4531,21.44,63,100,1.8,RU,1688772626
240,kirakira,-10.4544,161.9205,28.79,73,100,5.86,SB,1688772628
241,vila velha,-20.3297,-40.2925,22.19,86,0,3.6,BR,1688772628
242,nantucket,41.2835,-70.0995,22.78,100,100,2.06,US,1688772628
243,zouerate,22.7187,-12.4521,32.34,21,4,8.25,MR,1688772629
244,tolanaro,-25.0319,46.9987,19.04,88,20,3.09,MG,1688772629
245,broome,42.2506,-75.833,25.39,83,100,2.57,US,1688772630
246,darwin,-12.4611,130.8418,24.99,50,0,3.6,AU,1688772609
247,praia,14.9215,-23.5087,26.3,83,20,4.12,CV,1688772630
248,ancud,-41.8697,-73.8203,6.23,87,100,5.64,CL,1688772631
249,malabar,-33.9667,151.25,15.01,49,20,7.2,AU,1688772632
250,smithers,54.7804,-127.1743,29.18,32,75,1.54,CA,1688772633
251,picui,-6.5106,-36.3469,21.36,94,95,6.22,BR,1688772633
252,kendari,-3.945,122.4989,23.69,93,94,1.17,ID,1688772510
253,kismayo,-0.3582,42.5454,24.73,76,5,6.91,SO,1688772634
254,sodankyla,67.4167,26.6,10.89,76,88,2.95,FI,1688772634
255,alo,7.4178,6.7371,23.81,96,98,2.4,NG,1688772635
256,montblanc,41.3465,1.1432,23.18,58,35,1.35,ES,1688772635
257,lautoka,-17.6167,177.4667,27.92,65,20,3.09,FJ,1688772636
258,trairi,-3.2778,-39.2689,25.26,85,1,4.02,BR,1688772636
259,westport,41.1415,-73.3579,27.93,80,0,1.54,US,1688772636
260,san julian,21.0167,-102.1667,23.22,49,82,2.82,MX,1688772637
261,broken hill,-31.95,141.4333,11.29,54,2,9.54,AU,1688772637
262,banda aceh,5.5577,95.3222,26.77,81,77,4.46,ID,1688772638
263,tabuk,17.4189,121.4443,27.62,79,11,1.52,PH,1688772638
264,zarechnyy,53.2036,45.1923,19.29,70,0,1.74,RU,1688772638
265,sitangkai,4.6628,119.3928,28.36,74,25,3.76,PH,1688772638
266,sao sepe,-30.1606,-53.5653,15.19,98,100,5.51,BR,1688772639
267,bosaso,11.2842,49.1816,31.01,42,46,10.08,SO,1688772639
268,nakhchivan,39.2089,45.4122,26.82,29,10,6.17,AZ,1688772640
269,rongelap,11.1635,166.8941,28.16,82,100,7.93,MH,1688772640
270,new norfolk,-42.7826,147.0587,12.16,83,100,2.87,AU,1688772640
271,al khawr,25.7667,51.3167,32.7,30,56,1.66,QA,1688772641
272,west bay,19.3667,-81.4167,32.04,69,20,5.14,KY,1688772641
273,puerto madryn,-42.7692,-65.0385,7.64,44,100,2.45,AR,1688772643
274,constantia,44.1833,28.65,22.61,86,83,8.01,RO,1688772382
275,gornopravdinsk,60.05,69.9,14.68,82,39,2.18,RU,1688772644
276,rumoi,43.9344,141.6428,24.52,71,23,0.69,JP,1688772614
277,iwaki,37.05,140.8833,25.43,93,100,2.08,JP,1688772541
278,pocone,-16.2567,-56.6228,26.06,35,3,2.52,BR,1688772645
279,dubbo,-32.25,148.6167,8.07,87,0,3.09,AU,1688772645
280,pokrovskoye,47.4157,38.8971,22.65,67,56,3.39,RU,1688772646
281,as-suwayda,32.709,36.5695,16.69,87,13,3.63,SY,1688772528
282,bubaque,11.2833,-15.8333,26.34,78,99,2.86,GW,1688772646
283,rondonopolis,-16.4708,-54.6356,23.07,35,4,1.33,BR,1688772647
284,gaspe,48.8334,-64.4819,19.12,94,75,1.03,CA,1688772647
285,ustka,54.5805,16.8619,11.47,66,74,1.67,PL,1688772648
286,esmeraldas,-19.7625,-44.3139,18.58,48,16,1.03,BR,1688772648
287,cuautitlan izcalli,19.6469,-99.2467,23.81,76,93,1.78,MX,1688772649
288,bumba,2.1833,22.4667,21.81,90,61,1.44,CD,1688772650
289,antofagasta,-23.65,-70.4,16.6,82,65,2.54,CL,1688772650
290,caorle,45.5966,12.8758,21.98,75,67,2.84,IT,1688772650
291,gaillac,43.9016,1.8969,19.75,88,83,2.3,FR,1688772650
292,bayganin,48.6947,55.8742,27.24,37,24,4.24,KZ,1688772651
293,fortuna,40.5982,-124.1573,17.18,77,100,5.14,US,1688772651
294,beykonak,36.3257,30.303,28.08,65,43,1.34,TR,1688772651
295,kristiansund,63.1115,7.732,12.36,87,65,1.03,NO,1688772652
296,hasaki,35.7333,140.8333,28.22,86,100,8.98,JP,1688772359
297,tara,56.8944,74.371,15.63,92,73,3.17,RU,1688772652
298,ampara,7.2833,81.6667,24.79,85,60,1.11,LK,1688772652
299,antalaha,-14.9003,50.2788,23.8,59,95,5.79,MG,1688772653
300,castillos,-34.1667,-53.8333,10.19,65,87,3.64,UY,1688772653
301,prelouc,50.0398,15.5603,18.28,61,0,3.09,CZ,1688772653
302,baiti,13.745,-14.7482,28.41,69,99,4.58,SN,1688772654
303,ulladulla,-35.35,150.4667,15.3,43,5,6.83,AU,1688772654
304,el salto,20.3333,-104.5,22.53,79,43,1.82,MX,1688772654
305,kotel'nikovo,47.6317,43.1461,26.05,37,94,3.52,RU,1688772655
306,egilsstadir,65.2653,-14.3948,6.95,93,75,5.66,IS,1688772655
307,naberezhnyye chelny,55.7561,52.4289,18.49,60,66,2.09,RU,1688772655
308,miracema do tocantins,-9.5618,-48.3967,25.17,42,1,1.67,BR,1688772656
309,santa cruz de la sierra,-17.8,-63.1667,24.7,83,75,8.23,BO,1688772656
310,zemio,5.0314,25.1361,21.07,81,94,0.84,CF,1688772657
311,puerto francisco de orellana,-0.4667,-76.9667,23.58,91,73,0.73,EC,1688772657
312,panuco,22.05,-98.1667,31.1,60,97,5.65,MX,1688772657
313,owase,34.0667,136.2,27.96,82,75,4.33,JP,1688772394
314,revda,56.801,59.9303,13.6,80,84,1.83,RU,1688772658
315,howrah,22.5892,88.3103,28.0,89,75,2.06,IN,1688772658
316,hastings,50.8552,0.5729,21.85,26,0,5.57,GB,1688772658
317,manay,7.215,126.5397,28.1,71,69,0.54,PH,1688772659
318,kinik,39.0872,27.3833,21.99,79,1,2.5,TR,1688772659
319,curico,-34.9833,-71.2333,10.97,100,75,3.6,CL,1688772659
320,tabou,4.423,-7.3528,24.4,81,88,3.36,CI,1688772659
321,pisco,-13.7,-76.2167,21.03,64,100,7.2,PE,1688772660
322,san pedro pochutla,15.7333,-96.4667,28.17,71,67,3.06,MX,1688772660
323,nanao,37.05,136.9667,25.16,98,100,3.24,JP,1688772573
324,sirte,31.2089,16.5887,25.18,72,0,2.53,LY,1688772661
325,bailesti,44.0167,23.35,19.55,74,64,5.01,RO,1688772661
326,zhaobaoshan,29.9695,121.6875,32.01,79,91,0.88,CN,1688772662
327,enewetak,11.3474,162.3373,28.19,81,99,9.29,MH,1688772662
328,ketou,7.3633,2.5998,23.35,97,100,2.83,BJ,1688772663
329,aripuana,-9.1667,-60.6333,26.0,52,13,0.7,BR,1688772663
330,san juan pueblo,15.5833,-87.2333,30.31,88,74,1.57,HN,1688772663
331,lapua,62.9693,23.0088,14.08,98,33,1.87,FI,1688772664
332,ketchikan,55.3422,-131.6461,26.26,44,0,3.6,US,1688772664
333,nyurba,63.2842,118.3319,18.57,57,59,5.4,RU,1688772664
334,pak phanang,8.3511,100.202,27.01,86,100,4.05,TH,1688772665
335,saint-denis,48.9167,2.3333,24.88,56,0,3.6,FR,1688772665
336,kutulik,53.3508,102.7839,19.31,75,57,0.31,RU,1688772665
337,yasothon,15.75,104.1333,29.46,69,95,2.76,TH,1688772665
338,mahina,-17.5065,-149.489,28.87,70,20,8.75,PF,1688772666
339,port alfred,-33.5906,26.891,13.99,89,100,0.45,ZA,1688772666
340,argo,37.6333,22.7333,27.1,53,0,1.37,GR,1688772667
341,guerrero negro,27.9769,-114.0611,20.2,68,7,8.68,MX,1688772667
342,pitalito,1.8497,-76.0479,18.54,98,94,0.76,CO,1688772667
343,necochea,-38.5473,-58.7368,7.01,60,100,1.91,AR,1688772668
344,carnarvon,-24.8667,113.6333,13.44,68,0,6.21,AU,1688772634
345,veraval,20.9,70.3667,27.27,88,100,6.94,IN,1688772669
346,lompoc,34.6391,-120.4579,24.83,74,100,11.62,US,1688772669
347,san luis,-33.295,-66.3356,8.93,62,2,2.15,AR,1688772670
348,kharp,66.8014,65.8081,12.67,89,99,4.59,RU,1688772670
349,puerto baquerizo moreno,-0.9,-89.6,24.92,80,56,5.61,EC,1688772670
350,howick,-29.4779,30.2306,11.72,36,100,2.42,ZA,1688772531
351,jeju city,33.5097,126.5219,25.96,94,100,4.12,KR,1688772664
352,rio grande,-32.035,-52.0986,15.06,88,100,6.75,BR,1688772671
353,chiredzi,-21.05,31.6667,13.46,75,5,1.89,ZW,1688772671
354,praia da vitoria,38.7333,-27.0667,20.14,77,40,3.75,PT,1688772672
355,turaif,31.6725,38.6637,23.14,49,0,6.17,SA,1688772672
356,holualoa,19.6228,-155.9522,25.99,79,100,4.12,US,1688772672
357,tsumeb,-19.2333,17.7167,13.88,34,0,3.38,NA,1688772672
358,taoudenni,22.6783,-3.9836,39.49,14,24,4.23,ML,1688772673
359,klyuchi,52.2667,79.1667,16.86,86,2,1.88,RU,1688772673
360,santa elena de uairen,4.6167,-61.1333,20.0,90,43,1.87,VE,1688772673
361,franklin,39.9667,-83.0166,29.35,53,40,2.57,US,1688772673
362,tsiombe,-25.3,45.4833,16.62,86,0,2.52,MG,1688772674
363,port pirie,-33.1833,138.0167,13.15,73,38,6.28,AU,1688772674
364,medina,24.4686,39.6142,35.24,11,0,2.57,SA,1688772631
365,oxapampa,-10.5775,-75.4017,16.41,95,95,0.31,PE,1688772675
366,saudarkrokur,65.7461,-19.6394,9.24,87,57,1.65,IS,1688772675
367,shingu,33.7333,135.9833,26.89,89,94,4.01,JP,1688772476
368,iquique,-20.2208,-70.1431,18.02,82,37,1.79,CL,1688772675
369,borogontsy,62.6683,131.1683,19.59,68,74,5.49,RU,1688772676
370,bocas del toro,9.3333,-82.25,23.89,75,91,3.6,PA,1688772676
371,jose bonifacio,-21.0528,-49.6883,22.59,46,34,2.19,BR,1688772676
372,aban,56.67,96.06,21.69,59,43,3.6,RU,1688772676
373,la sarre,48.8002,-79.1996,20.35,66,10,1.37,CA,1688772677
374,harper,4.375,-7.7169,24.73,79,92,3.58,LR,1688772677
375,jardim,-21.4803,-56.1381,23.59,49,85,1.8,BR,1688772678
376,krasnoarmeysk,51.0239,45.6969,20.26,62,0,2.91,RU,1688772678
377,santa terezinha,-29.9002,-50.0904,17.37,95,100,5.39,BR,1688772678
378,atafu village,-8.5421,-172.5159,28.5,77,38,9.49,TK,1688772678
379,east london,-33.0153,27.9116,18.78,64,100,5.08,ZA,1688772679
380,lamu,-2.2717,40.902,24.12,78,40,7.05,KE,1688772679
381,marolambo,-20.05,48.1167,15.75,96,75,1.38,MG,1688772679
382,bilajer,40.5681,50.0378,24.9,94,0,2.06,AZ,1688772679
383,araguaina,-7.1911,-48.2072,26.98,38,9,1.86,BR,1688772680
384,natal,-5.795,-35.2094,23.36,100,40,1.54,BR,1688772680
385,happy valley-goose bay,53.3168,-60.3315,25.17,53,75,4.12,CA,1688772680
386,acapulco de juarez,16.8634,-99.8901,30.9,70,40,2.06,MX,1688772681
387,kinshasa,-4.3246,15.3215,22.21,83,9,0.51,CD,1688772558
388,lovisa,60.4566,26.2251,12.94,95,10,2.26,FI,1688772681
389,rundu,-17.9333,19.7667,10.82,39,0,3.0,NA,1688772607
390,san antonio de pale,-1.4014,5.6325,23.15,88,100,6.11,GQ,1688772682
391,maigo,8.1613,123.9583,27.84,79,71,0.81,PH,1688772682
392,mumford,5.2618,-0.759,23.87,92,48,4.43,GH,1688772682
393,saldanha,-33.0117,17.9442,12.03,71,4,8.73,ZA,1688772683
394,berdigestyakh,62.0989,126.6992,14.55,78,69,5.74,RU,1688772683
395,ajaccio,42.0,8.9167,22.99,65,75,2.57,FR,1688772683
396,coahuayana de hidalgo,18.7,-103.6583,30.99,70,38,3.81,MX,1688772683
397,chazuta,-6.5742,-76.1367,31.47,95,56,0.77,PE,1688772684
398,ola,59.5833,151.2833,15.68,66,87,1.98,RU,1688772684
399,troitsk,54.0979,61.5773,16.45,66,100,3.1,RU,1688772685
400,venezuela,8.0,-66.0,27.74,74,85,3.69,VE,1688772685
401,san fernando de apure,7.8878,-67.4724,24.57,90,59,1.36,VE,1688772685
402,sitia,35.2,26.0986,29.43,72,0,6.98,GR,1688772685
403,cerritos,33.8583,-118.0648,32.07,60,0,4.63,US,1688772524
404,vorkuta,67.5,64.0,11.27,95,99,2.98,RU,1688772686
405,arecibo,18.4724,-66.7157,29.59,82,99,0.45,PR,1688772686
406,sao joao da barra,-21.6403,-41.0511,19.05,79,4,5.3,BR,1688772686
407,jincheng,35.5022,112.8328,27.21,32,3,1.98,CN,1688772557
408,tchaourou,8.8865,2.5975,22.64,96,100,2.31,BJ,1688772687
409,buala,-8.145,159.5921,27.19,86,95,3.98,SB,1688772687
410,ilheus,-14.7889,-39.0494,23.9,94,40,1.03,BR,1688772687
411,margherita,27.2833,95.6833,24.4,99,100,0.21,IN,1688772688
412,port isabel,26.0734,-97.2086,33.04,76,0,5.66,US,1688772688
413,saint-francois,46.4154,3.9054,22.69,64,100,3.6,FR,1688772688
414,santarem,-2.4431,-54.7083,26.07,94,20,1.03,BR,1688772689
415,magadan,59.5667,150.8,15.37,68,78,0.8,RU,1688772602
416,abepura,-2.6333,140.5833,27.45,74,20,1.54,ID,1688772689
417,mount darwin,-16.7725,31.5838,9.12,90,0,1.52,ZW,1688772689
418,vengerovo,55.6848,76.7471,17.18,97,100,2.0,RU,1688772690
419,ad dawadimi,24.5077,44.3924,28.64,12,5,3.94,SA,1688772690
420,yurty,56.0498,97.6348,20.38,65,83,2.81,RU,1688772690
421,saint-philippe,-21.3585,55.7679,21.77,79,47,4.9,RE,1688772691
422,arraial do cabo,-22.9661,-42.0278,21.33,71,7,3.62,BR,1688772691
423,bakanas,44.8081,76.2772,23.06,35,38,2.26,KZ,1688772691
424,cloverdale,38.8055,-123.0172,35.17,23,0,3.58,US,1688772692
425,archangelos,36.2149,28.1149,26.99,69,0,6.9,GR,1688772692
426,arias,-33.6441,-62.4027,11.6,62,93,4.05,AR,1688772692
427,tchibanga,-2.85,11.0333,18.98,95,77,1.28,GA,1688772693
428,el calafate,-50.3408,-72.2768,-3.73,74,2,0.96,AR,1688772693
429,calca,-13.3333,-71.95,19.64,81,28,2.48,PE,1688772693
430,bassila,9.0081,1.6654,22.19,95,88,1.72,BJ,1688772693
431,piriapolis,-34.8682,-55.2744,11.06,84,40,3.09,UY,1688772694
432,yanchep,-31.55,115.6833,12.85,77,48,0.16,AU,1688772694
433,eydhafushi,5.1033,73.0708,27.77,77,67,5.46,MV,1688772694
434,burang,30.25,81.1667,9.41,89,100,2.11,CN,1688772695
435,tenkodogo,11.78,-0.3697,29.75,55,26,3.51,BF,1688772695
436,mossendjo,-2.9506,12.7261,18.44,92,88,1.95,CG,1688772695
437,chifeng,42.2683,118.9636,20.47,63,29,0.66,CN,1688772560
438,leer,53.2316,7.461,17.75,79,1,0.45,DE,1688772696
439,sandnessjoen,66.0217,12.6316,12.29,92,99,1.34,NO,1688772696
440,grand falls-windsor,48.9332,-55.6649,15.84,89,86,0.89,CA,1688772696
441,dangriga,16.9692,-88.2321,27.85,82,71,6.58,BZ,1688772697
442,mao,39.8885,4.2658,26.31,83,20,6.17,ES,1688772697
443,fort st. john,56.2499,-120.8529,24.94,33,75,3.09,CA,1688772698
444,arkansas city,37.062,-97.0384,23.12,94,20,2.57,US,1688772698
445,guane,22.2025,-84.0875,29.18,65,2,2.37,CU,1688772698
446,rong kwang,18.339,100.3174,26.71,97,75,0.33,TH,1688772699
447,gua musang,4.8823,101.9644,22.29,99,100,1.08,MY,1688772699
448,wewak,-3.5534,143.6268,24.95,93,100,2.0,PG,1688772699
449,touros,-5.1989,-35.4608,24.8,87,13,4.47,BR,1688772699
450,san agustin de valle fertil,-30.6335,-67.4682,9.87,81,4,1.67,AR,1688772700
451,laguna,38.421,-121.4238,32.52,43,0,4.63,US,1688772700
452,sulkowice,49.8405,19.801,16.45,78,7,1.3,PL,1688772700
453,saint-paul,-21.0096,55.2707,22.06,87,26,1.0,RE,1688772701
454,taza,34.25,-3.75,23.97,43,0,4.47,MA,1688772701
455,barra de santo antonio,-9.4047,-35.5072,23.6,89,35,5.02,BR,1688772701
456,sisimiut,66.9395,-53.6735,6.54,95,100,3.27,GL,1688772702
457,jaraiz de la vera,40.0601,-5.7543,18.95,46,45,2.03,ES,1688772702
458,price,39.5994,-110.8107,32.59,7,0,3.09,US,1688772702
459,vicksburg,32.3526,-90.8779,31.85,33,20,2.06,US,1688772703
460,tindouf,27.6711,-8.1474,29.25,24,0,7.72,DZ,1688772703
461,shimoda,34.6667,138.95,28.39,95,100,5.65,JP,1688772599
462,cambria,35.5641,-121.0808,33.47,65,12,6.66,US,1688772703
463,santo antonio do ica,-3.1022,-67.9397,23.52,99,100,0.6,BR,1688772704
464,gornozavodsk,58.3758,58.3211,13.29,81,96,0.82,RU,1688772704
465,boyolangu,-8.1181,111.8935,23.85,93,99,3.68,ID,1688772704
466,saipan,15.1355,145.701,30.39,100,20,5.81,MP,1688772705
467,brasilia de minas,-16.2064,-44.4333,17.79,49,0,1.77,BR,1688772705
468,port saint john's,-31.6229,29.5448,19.81,43,97,4.92,ZA,1688772705
469,nova vicosa,-17.8919,-39.3719,22.03,77,82,4.88,BR,1688772706
470,kijang,35.2442,129.2139,21.85,96,100,2.82,KR,1688772706
471,nea ionia,38.0373,23.7595,29.23,60,20,1.34,GR,1688772706
472,orchard homes,46.8633,-114.0484,31.08,21,0,0.0,US,1688772707
473,tamanrasset,22.785,5.5228,28.95,21,40,2.06,DZ,1688772707
474,kashmar,35.2383,58.4656,23.98,26,0,2.88,IR,1688772707
475,taro,-8.3862,115.28,22.0,97,100,1.35,ID,1688772707
476,kamiiso,41.8167,140.65,23.21,88,75,1.54,JP,1688772708
477,badagara,11.6,75.5833,25.68,89,81,4.48,IN,1688772708
478,villa avila camacho,20.3819,-97.8792,27.52,84,97,2.29,MX,1688772708
479,lagunas,-5.2269,-75.6753,23.75,97,96,1.14,PE,1688772708
480,ilovlya,49.3033,43.9796,27.43,29,40,6.14,RU,1688772709
481,yamethin,20.4333,96.15,26.29,78,61,2.49,MM,1688772709
482,aras-asan,8.8908,126.3033,27.72,78,77,1.4,PH,1688772709
483,sao miguel,-5.4667,-35.3667,23.43,89,21,4.31,BR,1688772710
484,wallajahbad,12.7667,79.7833,29.64,69,100,3.32,IN,1688772710
485,salinopolis,-0.6136,-47.3561,25.68,85,62,4.98,BR,1688772710
486,umba,66.6871,34.3429,10.01,75,99,3.48,RU,1688772710
487,nuuk,64.1835,-51.7216,5.34,100,75,5.66,GL,1688772711
488,kruisfontein,-34.0033,24.7314,11.05,81,100,3.46,ZA,1688772711
489,gadzhiyevo,69.2551,33.3362,5.92,86,56,3.28,RU,1688772711
490,mount isa,-20.7333,139.5,11.87,58,3,3.09,AU,1688772711
491,grand baie,-20.0182,57.5802,23.26,75,17,0.45,MU,1688772712
492,sangamner,19.5667,74.2167,24.27,86,100,3.28,IN,1688772712
493,agadez,19.75,10.25,31.4,12,2,3.91,NE,1688772712
494,ocos,14.5094,-92.1933,31.1,75,88,1.51,GT,1688772712
495,itapema,-27.0903,-48.6114,20.01,92,31,2.88,BR,1688772713
496,rensselaer,42.7168,-73.4829,22.78,87,99,1.4,US,1688772713
497,okhotsk,59.3833,143.3,15.68,78,51,3.2,RU,1688772713
498,isangel,-19.55,169.2667,27.06,61,40,1.03,VU,1688772714
499,dolores,-36.3132,-57.6792,6.32,80,100,3.01,AR,1688772714
500,clodomira,-27.5744,-64.1311,13.66,84,100,3.97,AR,1688772714
501,peace river,56.2501,-117.286,26.17,27,20,0.0,CA,1688772714
502,codrington,-38.2667,141.9667,9.94,78,87,11.55,AU,1688772715
503,llandrindod wells,52.2416,-3.3787,17.43,82,5,2.88,GB,1688772715
504,cidade velha,14.9167,-23.6167,26.26,83,20,4.12,CV,1688772715
505,navirai,-23.065,-54.1906,18.87,66,75,2.55,BR,1688772716
506,arpacay,40.8487,43.3291,18.8,84,37,1.64,TR,1688772716
507,afaahiti,-17.75,-149.2833,27.93,81,86,10.15,PF,1688772716
508,huntington beach,33.6603,-117.9992,29.75,63,0,4.63,US,1688772716
509,sao felix do xingu,-6.6447,-51.995,24.54,53,12,0.9,BR,1688772717
510,portland,45.5234,-122.6762,32.01,40,20,2.06,US,1688772717
511,thunder bay,48.4001,-89.3168,23.99,46,75,6.17,CA,1688772717
512,barabai,-2.5833,115.3833,23.26,99,100,0.66,ID,1688772717
513,kudahuvadhoo,2.6708,72.8944,27.57,71,83,3.29,MV,1688772718
514,pipar,26.3856,73.5378,28.69,76,100,2.86,IN,1688772609
515,zaozersk,69.4005,32.4476,4.96,91,49,1.65,RU,1688772718
516,boa vista,2.8197,-60.6733,26.99,78,20,2.06,BR,1688772719
517,bokhan,53.153,103.7714,19.57,75,97,0.66,RU,1688772719
518,big bend,-26.8167,31.9333,27.54,63,62,1.03,SZ,1688772719
519,muang phon-hong,18.4928,102.4172,25.81,91,67,0.5,LA,1688772719
520,zadar,44.1197,15.2422,22.34,43,0,3.6,HR,1688772720
521,porto velho,-8.7619,-63.9039,29.03,70,0,1.03,BR,1688772429
522,malkara,40.89,26.9011,18.65,88,21,1.42,TR,1688772720
523,monrovia,6.3005,-10.7969,24.87,77,40,2.89,LR,1688772721
524,nogliki,51.8333,143.1667,17.87,78,22,2.32,RU,1688772721
525,murray bridge,-35.1167,139.2667,12.29,65,23,9.74,AU,1688772721
526,kulebaki,55.4133,42.5325,19.9,86,16,2.67,RU,1688772721
527,cutral-co,-38.9469,-69.2089,4.39,10,100,1.59,AR,1688772722
528,teodoro sampaio,-22.5325,-52.1675,20.6,57,86,1.99,BR,1688772722
529,tumut,-35.3,148.2167,5.85,94,62,3.52,AU,1688772722
530,talcahuano,-36.7167,-73.1167,9.82,93,100,5.14,CL,1688772723
531,queenstown,-31.8976,26.8753,16.42,26,100,9.93,ZA,1688772723
532,fort mcmurray,56.7268,-111.381,24.77,35,0,2.06,CA,1688772723
533,beypore,11.1833,75.8167,23.58,94,75,1.03,IN,1688772724
534,barmer,25.75,71.3833,27.11,81,100,4.9,IN,1688772724
535,vila franca do campo,37.7167,-25.4333,18.23,73,21,2.2,PT,1688772724
536,lewistown,40.5992,-77.5714,27.67,74,20,3.09,US,1688772725
537,umm kaddadah,13.6017,26.6876,29.99,45,15,5.32,SD,1688772725
538,nagqu,31.5,92.0,6.16,92,100,2.68,CN,1688772629
539,afif,23.9065,42.9172,29.12,12,28,1.97,SA,1688772725
540,kill devil hills,36.0307,-75.676,28.01,84,0,0.0,US,1688772726
541,penzance,50.1186,-5.5371,17.38,89,53,10.12,GB,1688772726
542,cody,44.5263,-109.0565,22.17,45,75,3.6,US,1688772726
543,manta,-0.95,-80.7333,26.67,78,100,8.05,EC,1688772727
544,dong ha,16.8163,107.1003,29.3,63,46,2.18,VN,1688772727
545,cooper's town,26.8667,-77.5167,29.84,72,99,5.38,BS,1688772727
546,khasab,26.1799,56.2477,35.67,47,72,1.02,OM,1688772727
547,tazacorte,28.629,-17.9293,22.54,87,0,3.6,ES,1688772728
548,la'ie,21.6477,-157.9253,27.98,69,19,4.92,US,1688772728
549,batticaloa,7.7102,81.6924,26.0,79,61,2.52,LK,1688772307
550,luena,-11.7833,19.9167,16.1,51,0,3.09,AO,1688772728
551,luwuk,-0.9516,122.7875,25.13,92,68,2.86,ID,1688772554
552,oban,56.4127,-5.4706,14.1,86,39,3.16,GB,1688772729
553,ulsteinvik,62.3432,5.8487,13.51,87,61,2.24,NO,1688772729
554,coari,-4.085,-63.1414,26.37,75,93,1.46,BR,1688772730
555,gazli,40.1333,63.45,27.9,23,1,3.72,UZ,1688772730
556,whakatane,-37.9585,176.9854,16.4,94,85,4.02,NZ,1688772730
557,altamira,-3.2033,-52.2064,26.78,67,79,1.73,BR,1688772431
558,kuanda,56.3161,116.0806,21.22,63,88,1.66,RU,1688772731
559,leava,-14.3,-178.1667,27.81,75,88,9.15,WF,1688772731
560,lodja,-3.4833,23.4333,21.15,47,15,0.36,CD,1688772731
561,le vauclin,14.5452,-60.8388,27.69,89,40,2.57,MQ,1688772732
562,gebeit,21.0667,36.3167,29.35,32,72,2.12,SD,1688772732
563,challapata,-18.9,-66.7667,7.93,17,21,1.76,BO,1688772732
564,selfoss,63.9331,-20.9971,11.69,83,100,2.68,IS,1688772732
565,namdrik,5.5994,168.1028,28.7,80,100,8.46,MH,1688772733
566,laer,52.0555,7.3578,20.38,58,39,4.27,DE,1688772733
567,carlsbad,33.1581,-117.3506,29.89,66,0,4.92,US,1688772733
568,loch garman,52.3342,-6.4575,18.83,84,99,7.6,IE,1688772733
569,horb am neckar,48.4442,8.6913,20.98,55,80,1.01,DE,1688772734
570,mantua,45.1667,10.7833,22.58,77,83,1.34,IT,1688772734
571,shiguai,40.7058,110.2856,20.45,49,58,5.7,CN,1688772734
572,refahiye,39.9008,38.7667,14.43,96,55,1.9,TR,1688772735
573,rudbar,30.15,62.6,29.17,17,0,8.38,AF,1688772735
574,semirara,12.0697,121.3986,28.82,76,27,5.78,PH,1688772736
575,usogorsk,63.4106,48.6872,12.34,71,100,1.3,RU,1688772736
